[
  {
    "circlename": "Karnataka Circle",
    "regionname": "Bengaluru HQ Region",
    "divisionname": "Bengaluru East Division",
    "officename": "Dr. Ambedkar Veedhi S.O",
    "pincode": "560001",
    "officetype": "PO",
    "delivery": "Non Delivery",
    "district": "BENGALURU URBAN",
    "statename": "KARNATAKA",
    "latitude": "12.981138899999999",
    "longitude": "77.595361100000005"
  },
  {
    "circlename": "Karnataka Circle",
    "regionname": "Bengaluru HQ Region",
    "divisionname": "Bengaluru East Division",
    "officename": "HighCourt S.O",
    "pincode": "560001",
    "officetype": "PO",
    "delivery": "Non Delivery",
    "district": "BENGALURU URBAN",
    "statename": "KARNATAKA",
    "latitude": "12.968416700000001",
    "longitude": "77.569194400000001"
  },
  {
    "circlename": "Karnataka Circle",
    "regionname": "Bengaluru HQ Region",
    "divisionname": "Bengaluru East Division",
    "officename": "Rajbhavan S.O",
    "pincode": "560001",
    "officetype": "PO",
    "delivery": "Non Delivery",
    "district": "BENGALURU URBAN",
    "statename": "KARNATAKA",
    "latitude": "12.982467",
    "longitude": "77.591302999999996"
  },
  {
    "circlename": "Karnataka Circle",
    "regionname": "Bengaluru HQ Region",
    "divisionname": "Bengaluru East Division",
    "officename": "Vidhana Soudha S.O",
    "pincode": "560001",
    "officetype": "PO",
    "delivery": "Non Delivery",
    "district": "BENGALURU URBAN",
    "statename": "KARNATAKA",
    "latitude": "12.987472199999999",
    "longitude": "77.604749999999996"
  },
  {
    "circlename": "Karnataka Circle",
    "regionname": "Bengaluru HQ Region",
    "divisionname": "Bengaluru East Division",
    "officename": "Legislators Home S.O",
    "pincode": "560001",
    "officetype": "PO",
    "delivery": "Non Delivery",
    "district": "BENGALURU URBAN",
    "statename": "KARNATAKA",
    "latitude": "12.9838611",
    "longitude": "77.589611099999999"
  },
  {
    "circlename": "Karnataka Circle",
    "regionname": "Bengaluru HQ Region",
    "divisionname": "Bengaluru GPO Division",
    "officename": "Bengaluru G.P.O.",
    "pincode": "560001",
    "officetype": "HO",
    "delivery": "Delivery",
    "district": "BENGALURU URBAN",
    "statename": "KARNATAKA",
    "latitude": "12.9715990",
    "longitude": "77.5945630"
  },
  {
    "circlename": "Karnataka Circle",
    "regionname": "Bengaluru HQ Region",
    "divisionname": "Bengaluru East Division",
    "officename": "CMM Court Complex S.O",
    "pincode": "560001",
    "officetype": "PO",
    "delivery": "Non Delivery",
    "district": "BENGALURU URBAN",
    "statename": "KARNATAKA",
    "latitude": "12.97949",
    "longitude": "77.594183000000001"
  },
  {
    "circlename": "Karnataka Circle",
    "regionname": "Bengaluru HQ Region",
    "divisionname": "Bengaluru East Division",
    "officename": "Mahatma Gandhi Road S.O",
    "pincode": "560001",
    "officetype": "PO",
    "delivery": "Non Delivery",
    "district": "BENGALURU URBAN",
    "statename": "KARNATAKA",
    "latitude": "12.161027799999999",
    "longitude": "78.000222199999996"
  },
  {
    "circlename": "Karnataka Circle",
    "regionname": "Bengaluru HQ Region",
    "divisionname": "Bengaluru East Division",
    "officename": "Vasanthanagar S.O",
    "pincode": "560001",
    "officetype": "PO",
    "delivery": "Non Delivery",
    "district": "BENGALURU URBAN",
    "statename": "KARNATAKA",
    "latitude": "12.993510000000001",
    "longitude": "77.592101"
  },
  {
    "circlename": "Telangana Circle",
    "regionname": "Hyderabad Region",
    "divisionname": "Hanamkonda Division",
    "officename": "Relakunta B.O",
    "pincode": "506350",
    "officetype": "BO",
    "delivery": "Delivery",
    "district": "WARANGAL",
    "statename": "TELANGANA",
    "latitude": "18.0792252",
    "longitude": "79.8205965"
  },
  {
    "circlename": "Telangana Circle",
    "regionname": "Hyderabad Region",
    "divisionname": "Hanamkonda Division",
    "officename": "Nawabpet B.O",
    "pincode": "506356",
    "officetype": "BO",
    "delivery": "Delivery",
    "district": "JAYASHANKAR BHUPALAPALLY",
    "statename": "TELANGANA",
    "latitude": "18.3434466",
    "longitude": "79.6554116"
  },
  {
    "circlename": "Telangana Circle",
    "regionname": "Hyderabad Region",
    "divisionname": "Karimnagar Division",
    "officename": "Mohanraopet B.O",
    "pincode": "505453",
    "officetype": "BO",
    "delivery": "Delivery",
    "district": "Jagitial",
    "statename": "TELANGANA",
    "latitude": "18.8126660",
    "longitude": "78.7791610"
  },
  {
    "circlename": "Telangana Circle",
    "regionname": "Hyderabad Region",
    "divisionname": "Hanamkonda Division",
    "officename": "Bhagirathipet B.O",
    "pincode": "506345",
    "officetype": "BO",
    "delivery": "Delivery",
    "district": "JAYASHANKAR BHUPALAPALLY",
    "statename": "TELANGANA",
    "latitude": "18.2777497",
    "longitude": "79.7914119"
  },
  {
    "circlename": "Telangana Circle",
    "regionname": "Hyderabad Region",
    "divisionname": "Hanamkonda Division",
    "officename": "Jadalpet B.O",
    "pincode": "506170",
    "officetype": "BO",
    "delivery": "Non Delivery",
    "district": "JAYASHANKAR BHUPALAPALLY",
    "statename": "TELANGANA",
    "latitude": "18.3690203",
    "longitude": "79.7398632"
  },
  {
    "circlename": "Telangana Circle",
    "regionname": "Hyderabad Region",
    "divisionname": "Karimnagar Division",
    "officename": "Chowlamaddi B.O",
    "pincode": "505325",
    "officetype": "BO",
    "delivery": "Delivery",
    "district": "Jagitial",
    "statename": "TELANGANA",
    "latitude": "18.8279680",
    "longitude": "78.6504790"
  },
  {
    "circlename": "Telangana Circle",
    "regionname": "Hyderabad Region",
    "divisionname": "Karimnagar Division",
    "officename": "Metlachittapur B.O",
    "pincode": "505325",
    "officetype": "BO",
    "delivery": "Delivery",
    "district": "Jagitial",
    "statename": "TELANGANA",
    "latitude": "18.7904150",
    "longitude": "78.5902140"
  },
  {
    "circlename": "Telangana Circle",
    "regionname": "Hyderabad Region",
    "divisionname": "Karimnagar Division",
    "officename": "Vemulakurthi B.O",
    "pincode": "505450",
    "officetype": "BO",
    "delivery": "Delivery",
    "district": "Jagitial",
    "statename": "TELANGANA",
    "latitude": "18.9632340",
    "longitude": "78.5991950"
  },
  {
    "circlename": "Telangana Circle",
    "regionname": "Hyderabad Region",
    "divisionname": "Hanamkonda Division",
    "officename": "Chinnakodepak B.O",
    "pincode": "506319",
    "officetype": "BO",
    "delivery": "Delivery",
    "district": "JAYASHANKAR BHUPALAPALLY",
    "statename": "TELANGANA",
    "latitude": "18.1650847",
    "longitude": "79.7393060"
  },
  {
    "circlename": "Telangana Circle",
    "regionname": "Hyderabad Region",
    "divisionname": "Hanamkonda Division",
    "officename": "Sultanpur B.O",
    "pincode": "506348",
    "officetype": "BO",
    "delivery": "Delivery",
    "district": "JAYASHANKAR BHUPALAPALLY",
    "statename": "TELANGANA",
    "latitude": "18.2018606",
    "longitude": "79.8079134"
  },
  {
    "circlename": "Telangana Circle",
    "regionname": "Hyderabad Region",
    "divisionname": "Hanamkonda Division",
    "officename": "Pathipak B.O",
    "pincode": "506319",
    "officetype": "BO",
    "delivery": "Delivery",
    "district": "JAYASHANKAR BHUPALAPALLY",
    "statename": "TELANGANA",
    "latitude": "18.1020054",
    "longitude": "79.7058414"
  },
  {
    "circlename": "Telangana Circle",
    "regionname": "Hyderabad Region",
    "divisionname": "Karimnagar Division",
    "officename": "Donthapur B.O",
    "pincode": "505425",
    "officetype": "BO",
    "delivery": "Delivery",
    "district": "Jagitial",
    "statename": "TELANGANA",
    "latitude": "19.0373464",
    "longitude": "79.0338275"
  },
  {
    "circlename": "Telangana Circle",
    "regionname": "Hyderabad Region",
    "divisionname": "Karimnagar Division",
    "officename": "Rapalli B.O",
    "pincode": "505532",
    "officetype": "BO",
    "delivery": "Delivery",
    "district": "Jagitial",
    "statename": "TELANGANA",
    "latitude": "18.8123700",
    "longitude": "79.0406660"
  },
  {
    "circlename": "Telangana Circle",
    "regionname": "Hyderabad Region",
    "divisionname": "Karimnagar Division",
    "officename": "Kalvakota B.O",
    "pincode": "505453",
    "officetype": "BO",
    "delivery": "Delivery",
    "district": "Jagitial",
    "statename": "TELANGANA",
    "latitude": "18.7641210",
    "longitude": "78.7830380"
  },
  {
    "circlename": "Telangana Circle",
    "regionname": "Hyderabad Region",
    "divisionname": "Karimnagar Division",
    "officename": "Katlakunta B.O",
    "pincode": "505453",
    "officetype": "BO",
    "delivery": "Delivery",
    "district": "Jagitial",
    "statename": "TELANGANA",
    "latitude": "18.8356860",
    "longitude": "78.8114980"
  },
  {
    "circlename": "Telangana Circle",
    "regionname": "Hyderabad Region",
    "divisionname": "Hanamkonda Division",
    "officename": "Garimillapalli B.O",
    "pincode": "506356",
    "officetype": "BO",
    "delivery": "Delivery",
    "district": "JAYASHANKAR BHUPALAPALLY",
    "statename": "TELANGANA",
    "latitude": "39.5698000",
    "longitude": "58.6359000"
  },
  {
    "circlename": "Telangana Circle",
    "regionname": "Hyderabad Region",
    "divisionname": "Karimnagar Division",
    "officename": "Nawabpet B.O",
    "pincode": "505467",
    "officetype": "BO",
    "delivery": "Delivery",
    "district": "KARIMNAGAR",
    "statename": "TELANGANA",
    "latitude": "18.1807040",
    "longitude": "79.1697810"
  },
  {
    "circlename": "Telangana Circle",
    "regionname": "Hyderabad Region",
    "divisionname": "Hanamkonda Division",
    "officename": "Tanedarpalli B.O",
    "pincode": "506143",
    "officetype": "BO",
    "delivery": "Delivery",
    "district": "JANGOAN",
    "statename": "TELANGANA",
    "latitude": "17.8442036",
    "longitude": "79.3746343"
  },
  {
    "circlename": "Telangana Circle",
    "regionname": "Hyderabad Region",
    "divisionname": "Hanamkonda Division",
    "officename": "Thimmapur B.O",
    "pincode": "506345",
    "officetype": "BO",
    "delivery": "Delivery",
    "district": "JAYASHANKAR BHUPALAPALLY",
    "statename": "TELANGANA",
    "latitude": "18.3295766",
    "longitude": "79.9764416"
  },
  {
    "circlename": "Telangana Circle",
    "regionname": "Hyderabad Region",
    "divisionname": "Hanamkonda Division",
    "officename": "Machapur B.O",
    "pincode": "506344",
    "officetype": "BO",
    "delivery": "Delivery",
    "district": "Mulugu",
    "statename": "TELANGANA",
    "latitude": "18.2115978",
    "longitude": "80.0623935"
  },
  {
    "circlename": "Telangana Circle",
    "regionname": "Hyderabad Region",
    "divisionname": "Hanamkonda Division",
    "officename": "Balannagudem B.O",
    "pincode": "506172",
    "officetype": "BO",
    "delivery": "Delivery",
    "district": "Mulugu",
    "statename": "TELANGANA",
    "latitude": "18.198540000000001",
    "longitude": "80.524280000000005"
  },
  {
    "circlename": "Telangana Circle",
    "regionname": "Hyderabad Region",
    "divisionname": "Karimnagar Division",
    "officename": "Maddutla B.O",
    "pincode": "505452",
    "officetype": "BO",
    "delivery": "Delivery",
    "district": "Jagitial",
    "statename": "TELANGANA",
    "latitude": "18.7138570",
    "longitude": "78.8962190"
  },
  {
    "circlename": "Telangana Circle",
    "regionname": "Hyderabad Region",
    "divisionname": "Hanamkonda Division",
    "officename": "Ramannagudem B.O",
    "pincode": "506348",
    "officetype": "BO",
    "delivery": "Delivery",
    "district": "JAYASHANKAR BHUPALAPALLY",
    "statename": "TELANGANA",
    "latitude": "18.251473000000001",
    "longitude": "79.856381499999998"
  },
  {
    "circlename": "Telangana Circle",
    "regionname": "Hyderabad Region",
    "divisionname": "Hanamkonda Division",
    "officename": "Mustialpalli B.O",
    "pincode": "506391",
    "officetype": "BO",
    "delivery": "Delivery",
    "district": "WARANGAL",
    "statename": "TELANGANA",
    "latitude": "18.159929999999999",
    "longitude": "79.614320000000006"
  },
  {
    "circlename": "Telangana Circle",
    "regionname": "Hyderabad Region",
    "divisionname": "Hanamkonda Division",
    "officename": "Rebarthy B.O",
    "pincode": "506367",
    "officetype": "BO",
    "delivery": "Delivery",
    "district": "SIDDIPET",
    "statename": "TELANGANA",
    "latitude": "17.2230000",
    "longitude": "79.1200000"
  },
  {
    "circlename": "Telangana Circle",
    "regionname": "Hyderabad Region",
    "divisionname": "Hanamkonda Division",
    "officename": "Oorattam B.O",
    "pincode": "506347",
    "officetype": "BO",
    "delivery": "Delivery",
    "district": "Mulugu",
    "statename": "TELANGANA",
    "latitude": "18.3228717",
    "longitude": "80.2191091"
  },
  {
    "circlename": "Telangana Circle",
    "regionname": "Hyderabad Region",
    "divisionname": "Hanamkonda Division",
    "officename": "Repakpalli B.O",
    "pincode": "506348",
    "officetype": "BO",
    "delivery": "Delivery",
    "district": "JAYASHANKAR BHUPALAPALLY",
    "statename": "TELANGANA",
    "latitude": "18.2827041",
    "longitude": "79.7147792"
  },
  {
    "circlename": "Telangana Circle",
    "regionname": "Hyderabad Region",
    "divisionname": "Hanamkonda Division",
    "officename": "Bittupalli B.O",
    "pincode": "506347",
    "officetype": "BO",
    "delivery": "Delivery",
    "district": "Mulugu",
    "statename": "TELANGANA",
    "latitude": "18.1910045",
    "longitude": "80.1690875"
  },
  {
    "circlename": "Telangana Circle",
    "regionname": "Hyderabad Region",
    "divisionname": "Hanamkonda Division",
    "officename": "Kothapalli v B.O",
    "pincode": "506170",
    "officetype": "BO",
    "delivery": "Delivery",
    "district": "JAYASHANKAR BHUPALAPALLY",
    "statename": "TELANGANA",
    "latitude": "18.3679780",
    "longitude": "79.7826000"
  },
  {
    "circlename": "Telangana Circle",
    "regionname": "Hyderabad Region",
    "divisionname": "Hanamkonda Division",
    "officename": "Pasaramadla B.O",
    "pincode": "506201",
    "officetype": "BO",
    "delivery": "Delivery",
    "district": "JANGOAN",
    "statename": "TELANGANA",
    "latitude": "16.4420000",
    "longitude": "78.8540000"
  },
  {
    "circlename": "Telangana Circle",
    "regionname": "Hyderabad Region",
    "divisionname": "Hanamkonda Division",
    "officename": "Ramannagudem B.O",
    "pincode": "506165",
    "officetype": "BO",
    "delivery": "Delivery",
    "district": "Mulugu",
    "statename": "TELANGANA",
    "latitude": "18.3389210",
    "longitude": "80.4302319"
  },
  {
    "circlename": "Telangana Circle",
    "regionname": "Hyderabad Region",
    "divisionname": "Hanamkonda Division",
    "officename": "Nizampalli B.O",
    "pincode": "506348",
    "officetype": "BO",
    "delivery": "Delivery",
    "district": "JAYASHANKAR BHUPALAPALLY",
    "statename": "TELANGANA",
    "latitude": "18.165649999999999",
    "longitude": "79.810959999999994"
  },
  {
    "circlename": "Telangana Circle",
    "regionname": "Hyderabad Region",
    "divisionname": "Hanamkonda Division",
    "officename": "Taharapur B.O",
    "pincode": "506319",
    "officetype": "BO",
    "delivery": "Delivery",
    "district": "JAYASHANKAR BHUPALAPALLY",
    "statename": "TELANGANA",
    "latitude": "18.1269062",
    "longitude": "79.7084366"
  },
  {
    "circlename": "Telangana Circle",
    "regionname": "Hyderabad Region",
    "divisionname": "Hanamkonda Division",
    "officename": "Wanaparthy B.O",
    "pincode": "506303",
    "officetype": "BO",
    "delivery": "Delivery",
    "district": "JANGOAN",
    "statename": "TELANGANA",
    "latitude": "16.3287414",
    "longitude": "70.8964000"
  },
  {
    "circlename": "Telangana Circle",
    "regionname": "Hyderabad Region",
    "divisionname": "Hanamkonda Division",
    "officename": "Ramtheertham B.O",
    "pincode": "506350",
    "officetype": "BO",
    "delivery": "Delivery",
    "district": "WARANGAL",
    "statename": "TELANGANA",
    "latitude": "18.049019999999999",
    "longitude": "79.876589999999993"
  },
  {
    "circlename": "Telangana Circle",
    "regionname": "Hyderabad Region",
    "divisionname": "Karimnagar Division",
    "officename": "Kothapalli B.O",
    "pincode": "505304",
    "officetype": "BO",
    "delivery": "Delivery",
    "district": "RAJANNA SIRCILLA",
    "statename": "TELANGANA",
    "latitude": "18.2578900",
    "longitude": "78.5845370"
  },
  {
    "circlename": "Telangana Circle",
    "regionname": "Hyderabad Region",
    "divisionname": "Karimnagar Division",
    "officename": "Narmala B.O",
    "pincode": "505304",
    "officetype": "BO",
    "delivery": "Delivery",
    "district": "RAJANNA SIRCILLA",
    "statename": "TELANGANA",
    "latitude": "18.3615390",
    "longitude": "78.6549670"
  },
  {
    "circlename": "Telangana Circle",
    "regionname": "Hyderabad Region",
    "divisionname": "Hanamkonda Division",
    "officename": "Laxmareddipalli B.O",
    "pincode": "506168",
    "officetype": "BO",
    "delivery": "Delivery",
    "district": "JAYASHANKAR BHUPALAPALLY",
    "statename": "TELANGANA",
    "latitude": "35.8968000",
    "longitude": "61.2536900"
  },
  {
    "circlename": "Telangana Circle",
    "regionname": "Hyderabad Region",
    "divisionname": "Hanamkonda Division",
    "officename": "Ramachandrapuram B.O",
    "pincode": "506221",
    "officetype": "BO",
    "delivery": "Delivery",
    "district": "JANGOAN",
    "statename": "TELANGANA",
    "latitude": "17.7954983",
    "longitude": "78.9449683"
  },
  {
    "circlename": "Telangana Circle",
    "regionname": "Hyderabad Region",
    "divisionname": "Hanamkonda Division",
    "officename": "Kasimpalli B.O",
    "pincode": "506169",
    "officetype": "BO",
    "delivery": "Delivery",
    "district": "JAYASHANKAR BHUPALAPALLY",
    "statename": "TELANGANA",
    "latitude": "79.0000000",
    "longitude": "17.0000000"
  },
  {
    "circlename": "Telangana Circle",
    "regionname": "Hyderabad Region",
    "divisionname": "Hanamkonda Division",
    "officename": "Nemiligonda B.O",
    "pincode": "506143",
    "officetype": "BO",
    "delivery": "Delivery",
    "district": "JANGOAN",
    "statename": "TELANGANA",
    "latitude": "17.8442036",
    "longitude": "79.3746343"
  },
  {
    "circlename": "Telangana Circle",
    "regionname": "Hyderabad Region",
    "divisionname": "Adilabad Division",
    "officename": "Penchikalpet B.O",
    "pincode": "504296",
    "officetype": "BO",
    "delivery": "Delivery",
    "district": "KUMURAM BHEEM ASIFABAD",
    "statename": "TELANGANA",
    "latitude": "19.2402360",
    "longitude": "79.8205696"
  },
  {
    "circlename": "Telangana Circle",
    "regionname": "Hyderabad Region",
    "divisionname": "Hanamkonda Division",
    "officename": "Tatikonda B.O",
    "pincode": "506301",
    "officetype": "BO",
    "delivery": "Delivery",
    "district": "JANGOAN",
    "statename": "TELANGANA",
    "latitude": "17.8133662",
    "longitude": "79.3340276"
  },
  {
    "circlename": "Telangana Circle",
    "regionname": "Hyderabad Region",
    "divisionname": "Hanamkonda Division",
    "officename": "China Raman Cherla B.O",
    "pincode": "506221",
    "officetype": "BO",
    "delivery": "Delivery",
    "district": "JANGOAN",
    "statename": "TELANGANA",
    "latitude": "17.7681400",
    "longitude": "79.0459949"
  },
  {
    "circlename": "Telangana Circle",
    "regionname": "Hyderabad Region",
    "divisionname": "Hanamkonda Division",
    "officename": "Kundanpalli B.O",
    "pincode": "506356",
    "officetype": "BO",
    "delivery": "Delivery",
    "district": "JAYASHANKAR BHUPALAPALLY",
    "statename": "TELANGANA",
    "latitude": "18.2549000",
    "longitude": "79.8968700"
  },
  {
    "circlename": "Telangana Circle",
    "regionname": "Hyderabad Region",
    "divisionname": "Adilabad Division",
    "officename": "Mosam B.O",
    "pincode": "504296",
    "officetype": "BO",
    "delivery": "Delivery",
    "district": "KUMURAM BHEEM ASIFABAD",
    "statename": "TELANGANA",
    "latitude": "19.3778044",
    "longitude": "79.6165209"
  },
  {
    "circlename": "Telangana Circle",
    "regionname": "Hyderabad Region",
    "divisionname": "Hanamkonda Division",
    "officename": "Kadaverugu B.O",
    "pincode": "506223",
    "officetype": "BO",
    "delivery": "Delivery",
    "district": "SIDDIPET",
    "statename": "TELANGANA",
    "latitude": "17.9072799",
    "longitude": "78.9388837"
  },
  {
    "circlename": "Telangana Circle",
    "regionname": "Hyderabad Region",
    "divisionname": "Adilabad Division",
    "officename": "Malini",
    "pincode": "504295",
    "officetype": "BO",
    "delivery": "Delivery",
    "district": "KUMURAM BHEEM ASIFABAD",
    "statename": "TELANGANA",
    "latitude": "19.458072999999999",
    "longitude": "79.400529000000006"
  },
  {
    "circlename": "Telangana Circle",
    "regionname": "Hyderabad Region",
    "divisionname": "Hanamkonda Division",
    "officename": "Sarvai B.O",
    "pincode": "506165",
    "officetype": "BO",
    "delivery": "Delivery",
    "district": "Mulugu",
    "statename": "TELANGANA",
    "latitude": "18.49165",
    "longitude": "80.330640000000002"
  },
  {
    "circlename": "Telangana Circle",
    "regionname": "Hyderabad Region",
    "divisionname": "Adilabad Division",
    "officename": "Ginnedhari B.O",
    "pincode": "504297",
    "officetype": "BO",
    "delivery": "Delivery",
    "district": "KUMURAM BHEEM ASIFABAD",
    "statename": "TELANGANA",
    "latitude": "19.1973141",
    "longitude": "79.239476100000005"
  },
  {
    "circlename": "Telangana Circle",
    "regionname": "Hyderabad Region",
    "divisionname": "Hanamkonda Division",
    "officename": "Raghunathpalli B.O",
    "pincode": "506143",
    "officetype": "BO",
    "delivery": "Delivery",
    "district": "JANGOAN",
    "statename": "TELANGANA",
    "latitude": "17.8543710",
    "longitude": "79.4773529"
  },
  {
    "circlename": "Telangana Circle",
    "regionname": "Hyderabad Region",
    "divisionname": "Hanamkonda Division",
    "officename": "Garmillapalli B.O",
    "pincode": "506143",
    "officetype": "BO",
    "delivery": "Delivery",
    "district": "HANUMAKONDA",
    "statename": "TELANGANA",
    "latitude": "17.7922519",
    "longitude": "79.4935684"
  },
  {
    "circlename": "Telangana Circle",
    "regionname": "Hyderabad Region",
    "divisionname": "Hanamkonda Division",
    "officename": "Potlapur B.O",
    "pincode": "506352",
    "officetype": "BO",
    "delivery": "Delivery",
    "district": "Mulugu",
    "statename": "TELANGANA",
    "latitude": "18.110620000000001",
    "longitude": "79.991910000000004"
  },
  {
    "circlename": "Telangana Circle",
    "regionname": "Hyderabad Region",
    "divisionname": "Hanamkonda Division",
    "officename": "Vemulapalli B.O",
    "pincode": "506366",
    "officetype": "BO",
    "delivery": "Delivery",
    "district": "JAYASHANKAR BHUPALAPALLY",
    "statename": "TELANGANA",
    "latitude": "18.2778600",
    "longitude": "79.6122286"
  },
  {
    "circlename": "Telangana Circle",
    "regionname": "Hyderabad Region",
    "divisionname": "Hanamkonda Division",
    "officename": "Uppugal B.O",
    "pincode": "506143",
    "officetype": "BO",
    "delivery": "Delivery",
    "district": "JANGOAN",
    "statename": "TELANGANA",
    "latitude": "17.8804780",
    "longitude": "79.4230850"
  },
  {
    "circlename": "Telangana Circle",
    "regionname": "Hyderabad Region",
    "divisionname": "Adilabad Division",
    "officename": "Vempalli B.O",
    "pincode": "504209",
    "officetype": "BO",
    "delivery": "Delivery",
    "district": "MANCHERIAL",
    "statename": "TELANGANA",
    "latitude": "18.8730283",
    "longitude": "79.4118699"
  },
  {
    "circlename": "Telangana Circle",
    "regionname": "Hyderabad Region",
    "divisionname": "Hanamkonda Division",
    "officename": "Peddakomati Palli B.O",
    "pincode": "506366",
    "officetype": "BO",
    "delivery": "Delivery",
    "district": "JAYASHANKAR BHUPALAPALLY",
    "statename": "TELANGANA",
    "latitude": "18.3396879",
    "longitude": "79.6000073"
  },
  {
    "circlename": "Telangana Circle",
    "regionname": "Hyderabad Region",
    "divisionname": "Hanamkonda Division",
    "officename": "Abbapur B.O",
    "pincode": "506343",
    "officetype": "BO",
    "delivery": "Delivery",
    "district": "Mulugu",
    "statename": "TELANGANA",
    "latitude": "18.1662582",
    "longitude": "79.9346789"
  },
  {
    "circlename": "Telangana Circle",
    "regionname": "Hyderabad Region",
    "divisionname": "Hanamkonda Division",
    "officename": "Dhulmitta B.O",
    "pincode": "506367",
    "officetype": "BO",
    "delivery": "Delivery",
    "district": "SIDDIPET",
    "statename": "TELANGANA",
    "latitude": "17.0892000",
    "longitude": "79.0991000"
  },
  {
    "circlename": "Telangana Circle",
    "regionname": "Hyderabad Region",
    "divisionname": "Hanamkonda Division",
    "officename": "Chinnapendyal B.O",
    "pincode": "506144",
    "officetype": "BO",
    "delivery": "Delivery",
    "district": "JANGOAN",
    "statename": "TELANGANA",
    "latitude": "17.8937252",
    "longitude": "79.4178912"
  },
  {
    "circlename": "Telangana Circle",
    "regionname": "Hyderabad Region",
    "divisionname": "Hanamkonda Division",
    "officename": "Pidicilla B.O",
    "pincode": "506366",
    "officetype": "BO",
    "delivery": "Delivery",
    "district": "JAYASHANKAR BHUPALAPALLY",
    "statename": "TELANGANA",
    "latitude": "18.3072561",
    "longitude": "79.6063575"
  },
  {
    "circlename": "Telangana Circle",
    "regionname": "Hyderabad Region",
    "divisionname": "Adilabad Division",
    "officename": "Bareguda B.O",
    "pincode": "504296",
    "officetype": "BO",
    "delivery": "Delivery",
    "district": "KUMURAM BHEEM ASIFABAD",
    "statename": "TELANGANA",
    "latitude": "19.3285752",
    "longitude": "79.4760132"
  },
  {
    "circlename": "Telangana Circle",
    "regionname": "Hyderabad Region",
    "divisionname": "Hanamkonda Division",
    "officename": "Narmetta B.O",
    "pincode": "506175",
    "officetype": "BO",
    "delivery": "Non Delivery",
    "district": "JANGOAN",
    "statename": "TELANGANA",
    "latitude": "17.9320000",
    "longitude": "79.1521000"
  },
  {
    "circlename": "Telangana Circle",
    "regionname": "Hyderabad Region",
    "divisionname": "Karimnagar Division",
    "officename": "Yellapur B.O",
    "pincode": "505415",
    "officetype": "BO",
    "delivery": "Delivery",
    "district": "Jagitial",
    "statename": "TELANGANA",
    "latitude": "18.6848470",
    "longitude": "79.1109610"
  },
  {
    "circlename": "Telangana Circle",
    "regionname": "Hyderabad Region",
    "divisionname": "Hanamkonda Division",
    "officename": "Narlapur B.O",
    "pincode": "506391",
    "officetype": "BO",
    "delivery": "Delivery",
    "district": "WARANGAL",
    "statename": "TELANGANA",
    "latitude": "18.2414939",
    "longitude": "79.6011127"
  },
  {
    "circlename": "Telangana Circle",
    "regionname": "Hyderabad Region",
    "divisionname": "Hanamkonda Division",
    "officename": "Madipalli B.O",
    "pincode": "506371",
    "officetype": "BO",
    "delivery": "Delivery",
    "district": "HANUMAKONDA",
    "statename": "TELANGANA",
    "latitude": "18.0721411",
    "longitude": "79.5205913"
  },
  {
    "circlename": "Telangana Circle",
    "regionname": "Hyderabad Region",
    "divisionname": "Hanamkonda Division",
    "officename": "Peddapahad B.O",
    "pincode": "506175",
    "officetype": "BO",
    "delivery": "Delivery",
    "district": "JANGOAN",
    "statename": "TELANGANA",
    "latitude": "17.7320000",
    "longitude": "79.1780000"
  },
  {
    "circlename": "Telangana Circle",
    "regionname": "Hyderabad Region",
    "divisionname": "Hanamkonda Division",
    "officename": "Nellutla B.O",
    "pincode": "506175",
    "officetype": "BO",
    "delivery": "Non Delivery",
    "district": "JANGOAN",
    "statename": "TELANGANA",
    "latitude": "17.7890000",
    "longitude": "79.1672000"
  },
  {
    "circlename": "Telangana Circle",
    "regionname": "Hyderabad City Region",
    "divisionname": "Medak Division",
    "officename": "Narlapur BO",
    "pincode": "502102",
    "officetype": "BO",
    "delivery": "Delivery",
    "district": "MEDAK",
    "statename": "TELANGANA",
    "latitude": "18.074595",
    "longitude": "78.540842"
  },
  {
    "circlename": "Telangana Circle",
    "regionname": "Hyderabad Region",
    "divisionname": "Adilabad Division",
    "officename": "Kukuda B.O",
    "pincode": "504299",
    "officetype": "BO",
    "delivery": "Delivery",
    "district": "KUMURAM BHEEM ASIFABAD",
    "statename": "TELANGANA",
    "latitude": "NA",
    "longitude": "NA"
  },
  {
    "circlename": "Telangana Circle",
    "regionname": "Hyderabad Region",
    "divisionname": "Hanamkonda Division",
    "officename": "Rajavaram B.O",
    "pincode": "506144",
    "officetype": "BO",
    "delivery": "Delivery",
    "district": "JANGOAN",
    "statename": "TELANGANA",
    "latitude": "17.8877326",
    "longitude": "79.3885943"
  },
  {
    "circlename": "Telangana Circle",
    "regionname": "Hyderabad Region",
    "divisionname": "Karimnagar Division",
    "officename": "Pegadapalli B.O",
    "pincode": "505532",
    "officetype": "BO",
    "delivery": "Delivery",
    "district": "Jagitial",
    "statename": "TELANGANA",
    "latitude": "18.6985990",
    "longitude": "79.0740320"
  },
  {
    "circlename": "Telangana Circle",
    "regionname": "Hyderabad Region",
    "divisionname": "Hanamkonda Division",
    "officename": "Dammannapet B.O",
    "pincode": "506342",
    "officetype": "BO",
    "delivery": "Delivery",
    "district": "WARANGAL",
    "statename": "TELANGANA",
    "latitude": "18.067409999999999",
    "longitude": "79.672430000000006"
  },
  {
    "circlename": "Telangana Circle",
    "regionname": "Hyderabad Region",
    "divisionname": "Adilabad Division",
    "officename": "Kammergaon  B.O",
    "pincode": "504296",
    "officetype": "BO",
    "delivery": "Delivery",
    "district": "KUMURAM BHEEM ASIFABAD",
    "statename": "TELANGANA",
    "latitude": "NA",
    "longitude": "NA"
  },
  {
    "circlename": "Telangana Circle",
    "regionname": "Hyderabad Region",
    "divisionname": "Hanamkonda Division",
    "officename": "Tadur Bo B.O",
    "pincode": "506355",
    "officetype": "BO",
    "delivery": "Delivery",
    "district": "SIDDIPET",
    "statename": "TELANGANA",
    "latitude": "16.9810000",
    "longitude": "78.9620000"
  },
  {
    "circlename": "Telangana Circle",
    "regionname": "Hyderabad Region",
    "divisionname": "Hanamkonda Division",
    "officename": "Posanpalli B.O",
    "pincode": "506355",
    "officetype": "BO",
    "delivery": "Delivery",
    "district": "SIDDIPET",
    "statename": "TELANGANA",
    "latitude": "16.9960000",
    "longitude": "78.9230000"
  },
  {
    "circlename": "Telangana Circle",
    "regionname": "Hyderabad Region",
    "divisionname": "Hanamkonda Division",
    "officename": "Gatlakaniparthy B.O",
    "pincode": "506319",
    "officetype": "BO",
    "delivery": "Delivery",
    "district": "JAYASHANKAR BHUPALAPALLY",
    "statename": "TELANGANA",
    "latitude": "18.1340162",
    "longitude": "79.6803943"
  },
  {
    "circlename": "Telangana Circle",
    "regionname": "Hyderabad Region",
    "divisionname": "Adilabad Division",
    "officename": "Old Town B.O",
    "pincode": "504296",
    "officetype": "BO",
    "delivery": "Non Delivery",
    "district": "KUMURAM BHEEM ASIFABAD",
    "statename": "TELANGANA",
    "latitude": "19.3454350",
    "longitude": "79.4782916"
  },
  {
    "circlename": "Telangana Circle",
    "regionname": "Hyderabad Region",
    "divisionname": "Hanamkonda Division",
    "officename": "Nidigonda B.O",
    "pincode": "506244",
    "officetype": "BO",
    "delivery": "Delivery",
    "district": "JANGOAN",
    "statename": "TELANGANA",
    "latitude": "15.4025000",
    "longitude": "76.5960000"
  },
  {
    "circlename": "Telangana Circle",
    "regionname": "Hyderabad Region",
    "divisionname": "Hanamkonda Division",
    "officename": "Abdulnagaram B.O",
    "pincode": "506145",
    "officetype": "BO",
    "delivery": "Delivery",
    "district": "JANGOAN",
    "statename": "TELANGANA",
    "latitude": "17.9319733",
    "longitude": "79.2306900"
  },
  {
    "circlename": "Telangana Circle",
    "regionname": "Hyderabad Region",
    "divisionname": "Hanamkonda Division",
    "officename": "Pocharam B.O",
    "pincode": "506319",
    "officetype": "BO",
    "delivery": "Delivery",
    "district": "JAYASHANKAR BHUPALAPALLY",
    "statename": "TELANGANA",
    "latitude": "18.161560000000001",
    "longitude": "79.732100000000003"
  },
  {
    "circlename": "Telangana Circle",
    "regionname": "Hyderabad Region",
    "divisionname": "Hanamkonda Division",
    "officename": "Kondaparthy B.O",
    "pincode": "506003",
    "officetype": "BO",
    "delivery": "Delivery",
    "district": "HANUMAKONDA",
    "statename": "TELANGANA",
    "latitude": "17.9224790",
    "longitude": "79.5384425"
  },
  {
    "circlename": "Telangana Circle",
    "regionname": "Hyderabad Region",
    "divisionname": "Hanamkonda Division",
    "officename": "Mangal Banda Thanda B.O",
    "pincode": "506244",
    "officetype": "BO",
    "delivery": "Delivery",
    "district": "JANGOAN",
    "statename": "TELANGANA",
    "latitude": "14.3550000",
    "longitude": "78.3970000"
  },
  {
    "circlename": "Telangana Circle",
    "regionname": "Hyderabad Region",
    "divisionname": "Hanamkonda Division",
    "officename": "Iravennur B.O",
    "pincode": "506244",
    "officetype": "BO",
    "delivery": "Delivery",
    "district": "JANGOAN",
    "statename": "TELANGANA",
    "latitude": "15.9630000",
    "longitude": "79.3210000"
  },
  {
    "circlename": "Telangana Circle",
    "regionname": "Hyderabad Region",
    "divisionname": "Karimnagar Division",
    "officename": "Mallareddipet B.O",
    "pincode": "505304",
    "officetype": "BO",
    "delivery": "Delivery",
    "district": "RAJANNA SIRCILLA",
    "statename": "TELANGANA",
    "latitude": "18.3242230",
    "longitude": "78.6185940"
  },
  {
    "circlename": "Telangana Circle",
    "regionname": "Hyderabad Region",
    "divisionname": "Adilabad Division",
    "officename": "Papanpet B.O",
    "pincode": "504299",
    "officetype": "BO",
    "delivery": "Delivery",
    "district": "KUMURAM BHEEM ASIFABAD",
    "statename": "TELANGANA",
    "latitude": "19.4764899",
    "longitude": "79.5839230"
  },
  {
    "circlename": "Telangana Circle",
    "regionname": "Hyderabad Region",
    "divisionname": "Hanamkonda Division",
    "officename": "Chinchinkota B.O",
    "pincode": "506223",
    "officetype": "BO",
    "delivery": "Delivery",
    "district": "SIDDIPET",
    "statename": "TELANGANA",
    "latitude": "17.8746190",
    "longitude": "78.9639012"
  },
  {
    "circlename": "Telangana Circle",
    "regionname": "Hyderabad Region",
    "divisionname": "Hanamkonda Division",
    "officename": "Yellapur B.O",
    "pincode": "506371",
    "officetype": "BO",
    "delivery": "Delivery",
    "district": "HANUMAKONDA",
    "statename": "TELANGANA",
    "latitude": "18.0814575",
    "longitude": "79.4986557"
  },
  {
    "circlename": "Telangana Circle",
    "regionname": "Hyderabad Region",
    "divisionname": "Hanamkonda Division",
    "officename": "Pangidipalli B.O",
    "pincode": "506356",
    "officetype": "BO",
    "delivery": "Delivery",
    "district": "JAYASHANKAR BHUPALAPALLY",
    "statename": "TELANGANA",
    "latitude": "18.4059149",
    "longitude": "79.6351512"
  },
  {
    "circlename": "Telangana Circle",
    "regionname": "Hyderabad Region",
    "divisionname": "Adilabad Division",
    "officename": "Chakepalli B.O",
    "pincode": "504272",
    "officetype": "BO",
    "delivery": "Delivery",
    "district": "MANCHERIAL",
    "statename": "TELANGANA",
    "latitude": "19.1820860",
    "longitude": "79.4816378"
  },
  {
    "circlename": "Telangana Circle",
    "regionname": "Hyderabad Region",
    "divisionname": "Karimnagar Division",
    "officename": "Nagaram B.O",
    "pincode": "505301",
    "officetype": "BO",
    "delivery": "Delivery",
    "district": "RAJANNA SIRCILLA",
    "statename": "TELANGANA",
    "latitude": "18.4472390",
    "longitude": "78.7688730"
  }
]